[
  {
    "name": "sdsd",
    "phone": "1222222222",
    "address": "3434",
    "category": "ต้นไม้",
    "message": "error",
    "latitude": "",
    "longitude": "",
    "photo": null
  },
  {
    "name": "กดกด",
    "phone": "2222222222",
    "address": "dfdf",
    "category": "ต้นไม้",
    "message": "erer",
    "latitude": "",
    "longitude": "",
    "photo": "1750235876369.jpg"
  },
  {
    "name": "Thanawat",
    "phone": "0983622258",
    "address": "Rock apartment",
    "category": "ต้นไม้",
    "message": "ต้นไม้บังถนนจ้า",
    "latitude": "12.635886",
    "longitude": "102.123152",
    "photo": "1750236270738.jpg"
  },
  {
    "name": "sdsd",
    "phone": "303933333",
    "address": "3343",
    "category": "ต้นไม้",
    "message": "343434",
    "latitude": "12.635970",
    "longitude": "102.123246",
    "photo": "1750236466280.jpg"
  },
  {
    "name": "Yoyo",
    "phone": "2222222222",
    "address": "Systsysy",
    "category": "ขยะ",
    "message": "ขยะเยอะมาก",
    "latitude": "",
    "longitude": "",
    "photo": "1750237982305.jpeg"
  },
  {
    "name": "มังกร",
    "phone": "0983622258",
    "address": "Rockl",
    "category": "ลอกท่อและครอง",
    "message": "น้ำท่วม",
    "latitude": "12.636161",
    "longitude": "102.122750",
    "photo": "1750238856682.jpg"
  },
  {
    "name": "hghghg",
    "phone": "878787",
    "address": "hjhjjh",
    "category": "ขยะ",
    "message": "ขยะล้นสัส",
    "latitude": "12.638240",
    "longitude": "102.084639",
    "photo": "1750265266248.jpg"
  },
  {
    "name": "efe",
    "phone": "ererer",
    "address": "ever",
    "category": "ไฟฟ้า",
    "message": "erere",
    "latitude": "",
    "longitude": "",
    "photo": "1750311879238.jpg"
  },
  {
    "name": "334",
    "phone": "34343434",
    "address": "2213",
    "category": "ขยะ",
    "message": "12313",
    "latitude": "12.635810",
    "longitude": "102.123266",
    "photo": "1750386937184.jpg"
  },
  {
    "name": "Ddudu",
    "phone": "0983622258",
    "address": "Dududu",
    "category": "ต้นไม้",
    "message": "Dududu",
    "latitude": "12.635995",
    "longitude": "102.123143",
    "photo": "1750389304106.jpeg"
  },
  {
    "name": "ำำพำ",
    "phone": "ำพำพ",
    "address": "ำพำพ",
    "category": "ต้นไม้",
    "message": "ำพำพ",
    "latitude": "12.635990",
    "longitude": "102.123273",
    "photo": null
  },
  {
    "name": "sds",
    "phone": "sdsd",
    "address": "sds",
    "category": "ต้นไม้",
    "message": "sods",
    "latitude": "12.635990",
    "longitude": "102.123098",
    "photo": null
  },
  {
    "name": "xdsdsd",
    "phone": "sdsd",
    "address": "sdsd",
    "category": "ต้นไม้",
    "message": "sdsd",
    "latitude": "12.635995",
    "longitude": "102.122821",
    "photo": "1750395259260.jpg"
  },
  {
    "name": "กดกดก",
    "phone": "กดกดก",
    "address": "กดกดกด",
    "category": "ต้นไม้",
    "message": "กดกด",
    "latitude": "12.635953",
    "longitude": "102.123161",
    "photo": "1750395594456.jpeg"
  }
]